{"businesses": [{"id": "CBmrwh7jHn88M4v8Q9Qyyg", "alias": "white-noise-brooklyn-2", "name": "White Noise", "image_url": "https://s3-media2.fl.yelpcdn.com/bphoto/rcNRZr7mVv-vb-PKMMrsLw/o.jpg", "is_closed": false, "url": "https://www.yelp.com/biz/white-noise-brooklyn-2?adjust_creative=w1T_agSsZFkZALqEYIiCXQ&utm_campaign=yelp_api_v3&utm_medium=api_v3_business_search&utm_source=w1T_agSsZFkZALqEYIiCXQ", "review_count": 15, "categories": [{"alias": "coffee", "title": "Coffee & Tea"}], "rating": 4.5, "coordinates": {"latitude": 40.6893582571548, "longitude": -73.9884148165584}, "transactions": [], "location": {"address1": "71 Smith St", "address2": "", "address3": null, "city": "Brooklyn", "zip_code": "11201", "country": "US", "state": "NY", "display_address": ["71 Smith St", "Brooklyn, NY 11201"]}, "phone": "", "display_phone": "", "distance": 1856.1270355932324}, {"id": "NG-KlDcSjBk3pfdzjXmMVw", "alias": "devocion-brooklyn-3", "name": "Devocion", "image_url": "https://s3-media1.fl.yelpcdn.com/bphoto/xEKPpnWtKdo3f_q3vJNW4A/o.jpg", "is_closed": false, "url": "https://www.yelp.com/biz/devocion-brooklyn-3?adjust_creative=w1T_agSsZFkZALqEYIiCXQ&utm_campaign=yelp_api_v3&utm_medium=api_v3_business_search&utm_source=w1T_agSsZFkZALqEYIiCXQ", "review_count": 73, "categories": [{"alias": "coffee", "title": "Coffee & Tea"}, {"alias": "coffeeroasteries", "title": "Coffee Roasteries"}, {"alias": "cafes", "title": "Cafes"}], "rating": 4.0, "coordinates": {"latitude": 40.68857, "longitude": -73.98334}, "transactions": [], "price": "$$", "location": {"address1": "276 Livingston St", "address2": "", "address3": null, "city": "Brooklyn", "zip_code": "11201", "country": "US", "state": "NY", "display_address": ["276 Livingston St", "Brooklyn, NY 11201"]}, "phone": "+17182856180", "display_phone": "(718) 285-6180", "distance": 2087.8169485341946}, {"id": "pimuUR-TEHIjUla3S3jemQ", "alias": "coffee-project-ny-new-york", "name": "Coffee Project NY", "image_url": "https://s3-media2.fl.yelpcdn.com/bphoto/2Wtg4i2JV0N0ZZnl33S3Cg/o.jpg", "is_closed": false, "url": "https://www.yelp.com/biz/coffee-project-ny-new-york?adjust_creative=w1T_agSsZFkZALqEYIiCXQ&utm_campaign=yelp_api_v3&utm_medium=api_v3_business_search&utm_source=w1T_agSsZFkZALqEYIiCXQ", "review_count": 630, "categories": [{"alias": "coffee", "title": "Coffee & Tea"}], "rating": 4.5, "coordinates": {"latitude": 40.72699, "longitude": -73.98922}, "transactions": [], "price": "$$", "location": {"address1": "239 E 5th St", "address2": null, "address3": "", "city": "New York", "zip_code": "10003", "country": "US", "state": "NY", "display_address": ["239 E 5th St", "New York, NY 10003"]}, "phone": "+12122287888", "display_phone": "(212) 228-7888", "distance": 2435.8434261216967}, {"id": "wTA00Dov2lFYXKnZ58eXAQ", "alias": "spreadhouse-cafe-new-york-3", "name": "Spreadhouse Cafe", "image_url": "https://s3-media2.fl.yelpcdn.com/bphoto/YsBfwR-s2ZdfmCwqwAx_iQ/o.jpg", "is_closed": false, "url": "https://www.yelp.com/biz/spreadhouse-cafe-new-york-3?adjust_creative=w1T_agSsZFkZALqEYIiCXQ&utm_campaign=yelp_api_v3&utm_medium=api_v3_business_search&utm_source=w1T_agSsZFkZALqEYIiCXQ", "review_count": 380, "categories": [{"alias": "cafes", "title": "Cafes"}, {"alias": "bars", "title": "Bars"}], "rating": 4.0, "coordinates": {"latitude": 40.71891, "longitude": -73.98585}, "transactions": [], "price": "$", "location": {"address1": "116 Suffolk St", "address2": "", "address3": "", "city": "New York", "zip_code": "10002", "country": "US", "state": "NY", "display_address": ["116 Suffolk St", "New York, NY 10002"]}, "phone": "+16465246353", "display_phone": "(646) 524-6353", "distance": 1657.2327995035243}, {"id": "vijwGDNrPBJHEG7_DsjZNw", "alias": "usagi-ny-dumbo-7", "name": "Usagi NY", "image_url": "https://s3-media2.fl.yelpcdn.com/bphoto/5gCxDDgvjSnZOIM6fl6Wqg/o.jpg", "is_closed": false, "url": "https://www.yelp.com/biz/usagi-ny-dumbo-7?adjust_creative=w1T_agSsZFkZALqEYIiCXQ&utm_campaign=yelp_api_v3&utm_medium=api_v3_business_search&utm_source=w1T_agSsZFkZALqEYIiCXQ", "review_count": 57, "categories": [{"alias": "bookstores", "title": "Bookstores"}, {"alias": "cafes", "title": "Cafes"}, {"alias": "homedecor", "title": "Home Decor"}], "rating": 4.5, "coordinates": {"latitude": 40.70383, "longitude": -73.98691}, "transactions": [], "price": "$$", "location": {"address1": "163 Plymouth St", "address2": "", "address3": "", "city": "Dumbo", "zip_code": "11201", "country": "US", "state": "NY", "display_address": ["163 Plymouth St", "Dumbo, NY 11201"]}, "phone": "+17188018037", "display_phone": "(718) 801-8037", "distance": 635.7818631527628}, {"id": "pzqb1u_GeU-vkrk_KdFieQ", "alias": "brooklyn-roasting-company-brooklyn-2", "name": "Brooklyn Roasting Company", "image_url": "https://s3-media1.fl.yelpcdn.com/bphoto/-B_RsB5Vm0T92Ia8SctWxg/o.jpg", "is_closed": false, "url": "https://www.yelp.com/biz/brooklyn-roasting-company-brooklyn-2?adjust_creative=w1T_agSsZFkZALqEYIiCXQ&utm_campaign=yelp_api_v3&utm_medium=api_v3_business_search&utm_source=w1T_agSsZFkZALqEYIiCXQ", "review_count": 488, "categories": [{"alias": "coffee", "title": "Coffee & Tea"}], "rating": 4.0, "coordinates": {"latitude": 40.704228, "longitude": -73.986241}, "transactions": [], "price": "$$", "location": {"address1": "25 Jay St", "address2": "", "address3": "", "city": "Brooklyn", "zip_code": "11201", "country": "US", "state": "NY", "display_address": ["25 Jay St", "Brooklyn, NY 11201"]}, "phone": "+17188551000", "display_phone": "(718) 855-1000", "distance": 700.3281237079469}, {"id": "jZZMmT7Mk3S-fNjXcq3Ksg", "alias": "devocion-williamsburg", "name": "Devocion", "image_url": "https://s3-media1.fl.yelpcdn.com/bphoto/KKbQnDLSS8Or93vgpBJoxQ/o.jpg", "is_closed": false, "url": "https://www.yelp.com/biz/devocion-williamsburg?adjust_creative=w1T_agSsZFkZALqEYIiCXQ&utm_campaign=yelp_api_v3&utm_medium=api_v3_business_search&utm_source=w1T_agSsZFkZALqEYIiCXQ", "review_count": 388, "categories": [{"alias": "coffee", "title": "Coffee & Tea"}, {"alias": "cafes", "title": "Cafes"}, {"alias": "coffeeroasteries", "title": "Coffee Roasteries"}], "rating": 4.0, "coordinates": {"latitude": 40.716083, "longitude": -73.964752}, "transactions": [], "price": "$$", "location": {"address1": "69 Grand St", "address2": null, "address3": "", "city": "Williamsburg", "zip_code": "11249", "country": "US", "state": "NY", "display_address": ["69 Grand St", "Williamsburg, NY 11249"]}, "phone": "+17182856180", "display_phone": "(718) 285-6180", "distance": 2762.7656443327546}, {"id": "o9Ipm--aunOX5BbcKY4ENw", "alias": "feed-shop-and-cafe-brooklyn-2", "name": "FEED Shop & Cafe", "image_url": "https://s3-media1.fl.yelpcdn.com/bphoto/1AMqoAF41OM0WTqoBEoXxA/o.jpg", "is_closed": false, "url": "https://www.yelp.com/biz/feed-shop-and-cafe-brooklyn-2?adjust_creative=w1T_agSsZFkZALqEYIiCXQ&utm_campaign=yelp_api_v3&utm_medium=api_v3_business_search&utm_source=w1T_agSsZFkZALqEYIiCXQ", "review_count": 12, "categories": [{"alias": "coffee", "title": "Coffee & Tea"}, {"alias": "accessories", "title": "Accessories"}, {"alias": "jewelry", "title": "Jewelry"}], "rating": 4.0, "coordinates": {"latitude": 40.703402, "longitude": -73.99141}, "transactions": [], "location": {"address1": "55 Water St", "address2": "", "address3": null, "city": "Brooklyn", "zip_code": "11201", "country": "US", "state": "NY", "display_address": ["55 Water St", "Brooklyn, NY 11201"]}, "phone": "+19293972716", "display_phone": "(929) 397-2716", "distance": 332.66869202732244}, {"id": "DE0ROwygh-86i4s-WLp8wQ", "alias": "maman-soho-new-york", "name": "Maman Soho", "image_url": "https://s3-media1.fl.yelpcdn.com/bphoto/Sg35I7HYB_Qs_FG8pF_ZLg/o.jpg", "is_closed": false, "url": "https://www.yelp.com/biz/maman-soho-new-york?adjust_creative=w1T_agSsZFkZALqEYIiCXQ&utm_campaign=yelp_api_v3&utm_medium=api_v3_business_search&utm_source=w1T_agSsZFkZALqEYIiCXQ", "review_count": 437, "categories": [{"alias": "cafes", "title": "Cafes"}, {"alias": "bakeries", "title": "Bakeries"}, {"alias": "breakfast_brunch", "title": "Breakfast & Brunch"}], "rating": 4.0, "coordinates": {"latitude": 40.72028, "longitude": -73.9984}, "transactions": [], "price": "$$", "location": {"address1": "239 Centre St", "address2": null, "address3": "", "city": "New York", "zip_code": "10013", "country": "US", "state": "NY", "display_address": ["239 Centre St", "New York, NY 10013"]}, "phone": "+12122260700", "display_phone": "(212) 226-0700", "distance": 1685.4911071554986}, {"id": "h6qbszNgXgjj9Lrb62m-9w", "alias": "the-uncommons-new-york", "name": "The Uncommons", "image_url": "https://s3-media3.fl.yelpcdn.com/bphoto/QuWvwhmyv1M12gM1fXDKRw/o.jpg", "is_closed": false, "url": "https://www.yelp.com/biz/the-uncommons-new-york?adjust_creative=w1T_agSsZFkZALqEYIiCXQ&utm_campaign=yelp_api_v3&utm_medium=api_v3_business_search&utm_source=w1T_agSsZFkZALqEYIiCXQ", "review_count": 338, "categories": [{"alias": "coffee", "title": "Coffee & Tea"}, {"alias": "tabletopgames", "title": "Tabletop Games"}], "rating": 4.0, "coordinates": {"latitude": 40.72933, "longitude": -73.99865}, "transactions": [], "price": "$", "location": {"address1": "230 Thompson St", "address2": null, "address3": "", "city": "New York", "zip_code": "10012", "country": "US", "state": "NY", "display_address": ["230 Thompson St", "New York, NY 10012"]}, "phone": "+16465439215", "display_phone": "(646) 543-9215", "distance": 2683.826935437106}, {"id": "WHRHK3S1mQc3PmhwsGRvbw", "alias": "bibble-and-sip-new-york-2", "name": "Bibble & Sip", "image_url": "https://s3-media2.fl.yelpcdn.com/bphoto/b4_G7Dc2l1hpHlTjH48kuw/o.jpg", "is_closed": false, "url": "https://www.yelp.com/biz/bibble-and-sip-new-york-2?adjust_creative=w1T_agSsZFkZALqEYIiCXQ&utm_campaign=yelp_api_v3&utm_medium=api_v3_business_search&utm_source=w1T_agSsZFkZALqEYIiCXQ", "review_count": 4344, "categories": [{"alias": "coffee", "title": "Coffee & Tea"}, {"alias": "bakeries", "title": "Bakeries"}], "rating": 4.5, "coordinates": {"latitude": 40.76282, "longitude": -73.98518}, "transactions": [], "price": "$", "location": {"address1": "253 W 51st St", "address2": "", "address3": "", "city": "New York", "zip_code": "10019", "country": "US", "state": "NY", "display_address": ["253 W 51st St", "New York, NY 10019"]}, "phone": "+16466495116", "display_phone": "(646) 649-5116", "distance": 6427.9212521553545}, {"id": "-2UtjTxrt1Xzd-HPsLJ7mA", "alias": "butler-brooklyn-2", "name": "Butler", "image_url": "https://s3-media2.fl.yelpcdn.com/bphoto/U4lXZCW47KCPbh30XMrt1w/o.jpg", "is_closed": false, "url": "https://www.yelp.com/biz/butler-brooklyn-2?adjust_creative=w1T_agSsZFkZALqEYIiCXQ&utm_campaign=yelp_api_v3&utm_medium=api_v3_business_search&utm_source=w1T_agSsZFkZALqEYIiCXQ", "review_count": 44, "categories": [{"alias": "bakeries", "title": "Bakeries"}, {"alias": "cafes", "title": "Cafes"}], "rating": 4.0, "coordinates": {"latitude": 40.7032670673495, "longitude": -73.9922419276899}, "transactions": ["delivery", "pickup"], "location": {"address1": "40 Water St", "address2": "", "address3": null, "city": "Brooklyn", "zip_code": "11201", "country": "US", "state": "NY", "display_address": ["40 Water St", "Brooklyn, NY 11201"]}, "phone": "", "display_phone": "", "distance": 299.48141504845114}, {"id": "1fDtQij01Mk92ZTGn6WHjg", "alias": "the-little-sweet-cafe-boerum-hill-2", "name": "The Little Sweet Cafe", "image_url": "https://s3-media1.fl.yelpcdn.com/bphoto/EVfbthCkggv4oEnb935TBA/o.jpg", "is_closed": false, "url": "https://www.yelp.com/biz/the-little-sweet-cafe-boerum-hill-2?adjust_creative=w1T_agSsZFkZALqEYIiCXQ&utm_campaign=yelp_api_v3&utm_medium=api_v3_business_search&utm_source=w1T_agSsZFkZALqEYIiCXQ", "review_count": 102, "categories": [{"alias": "coffee", "title": "Coffee & Tea"}], "rating": 4.5, "coordinates": {"latitude": 40.6881418, "longitude": -73.9867324}, "transactions": [], "price": "$$", "location": {"address1": "77B Hoyt St", "address2": "", "address3": "", "city": "Boerum Hill", "zip_code": "11201", "country": "US", "state": "NY", "display_address": ["77B Hoyt St", "Boerum Hill, NY 11201"]}, "phone": "+17188588998", "display_phone": "(718) 858-8998", "distance": 2026.8476632601842}, {"id": "m7XXpcFjQjjEd2YJeqplcw", "alias": "bonsai-kakig\u014dri-new-york-3", "name": "Bonsai Kakig\u014dri", "image_url": "https://s3-media2.fl.yelpcdn.com/bphoto/JeF0cb8meGzSAUnMkiVNyw/o.jpg", "is_closed": false, "url": "https://www.yelp.com/biz/bonsai-kakig%C5%8Dri-new-york-3?adjust_creative=w1T_agSsZFkZALqEYIiCXQ&utm_campaign=yelp_api_v3&utm_medium=api_v3_business_search&utm_source=w1T_agSsZFkZALqEYIiCXQ", "review_count": 5, "categories": [{"alias": "japanese", "title": "Japanese"}, {"alias": "desserts", "title": "Desserts"}, {"alias": "cafes", "title": "Cafes"}], "rating": 5.0, "coordinates": {"latitude": 40.72136, "longitude": -73.98793}, "transactions": [], "location": {"address1": "100 Stanton St", "address2": "", "address3": null, "city": "New York", "zip_code": "10002", "country": "US", "state": "NY", "display_address": ["100 Stanton St", "New York, NY 10002"]}, "phone": "+16463081244", "display_phone": "(646) 308-1244", "distance": 1851.2644559835337}, {"id": "S9T8kG8xTPaQ1PxLE_VdYg", "alias": "devocion-new-york", "name": "Devocion", "image_url": "https://s3-media4.fl.yelpcdn.com/bphoto/Jz5ljjMUuMuCX9MPi-CzJw/o.jpg", "is_closed": false, "url": "https://www.yelp.com/biz/devocion-new-york?adjust_creative=w1T_agSsZFkZALqEYIiCXQ&utm_campaign=yelp_api_v3&utm_medium=api_v3_business_search&utm_source=w1T_agSsZFkZALqEYIiCXQ", "review_count": 44, "categories": [{"alias": "cafes", "title": "Cafes"}, {"alias": "coffeeroasteries", "title": "Coffee Roasteries"}, {"alias": "coffee", "title": "Coffee & Tea"}], "rating": 4.0, "coordinates": {"latitude": 40.73904, "longitude": -73.98916}, "transactions": [], "price": "$", "location": {"address1": "25 E 20th St", "address2": "", "address3": null, "city": "New York", "zip_code": "10003", "country": "US", "state": "NY", "display_address": ["25 E 20th St", "New York, NY 10003"]}, "phone": "+17182856180", "display_phone": "(718) 285-6180", "distance": 3768.8674890884886}, {"id": "kuKSvCZDFrgOrY-dcrOefg", "alias": "round-k-new-york", "name": "Round K", "image_url": "https://s3-media1.fl.yelpcdn.com/bphoto/S5rlrXJpAGtwSJS8xcJ0XA/o.jpg", "is_closed": false, "url": "https://www.yelp.com/biz/round-k-new-york?adjust_creative=w1T_agSsZFkZALqEYIiCXQ&utm_campaign=yelp_api_v3&utm_medium=api_v3_business_search&utm_source=w1T_agSsZFkZALqEYIiCXQ", "review_count": 339, "categories": [{"alias": "coffee", "title": "Coffee & Tea"}, {"alias": "breakfast_brunch", "title": "Breakfast & Brunch"}, {"alias": "bagels", "title": "Bagels"}], "rating": 4.5, "coordinates": {"latitude": 40.718906, "longitude": -73.990966}, "transactions": ["delivery", "pickup"], "price": "$$", "location": {"address1": "99 Allen St", "address2": null, "address3": "", "city": "New York", "zip_code": "10002", "country": "US", "state": "NY", "display_address": ["99 Allen St", "New York, NY 10002"]}, "phone": "+19174751423", "display_phone": "(917) 475-1423", "distance": 1523.9167334386323}, {"id": "u0bYCPlbJ85_lDjnZQ_e3w", "alias": "kaigo-coffee-room-new-york-4", "name": "Kaigo Coffee Room", "image_url": "https://s3-media4.fl.yelpcdn.com/bphoto/b6xzD6icNoM9SJ9PnYILeQ/o.jpg", "is_closed": false, "url": "https://www.yelp.com/biz/kaigo-coffee-room-new-york-4?adjust_creative=w1T_agSsZFkZALqEYIiCXQ&utm_campaign=yelp_api_v3&utm_medium=api_v3_business_search&utm_source=w1T_agSsZFkZALqEYIiCXQ", "review_count": 129, "categories": [{"alias": "coffee", "title": "Coffee & Tea"}], "rating": 4.5, "coordinates": {"latitude": 40.7187029822397, "longitude": -74.0004725370878}, "transactions": [], "price": "$$", "location": {"address1": "120C Lafayette St", "address2": "", "address3": null, "city": "New York", "zip_code": "10013", "country": "US", "state": "NY", "display_address": ["120C Lafayette St", "New York, NY 10013"]}, "phone": "+16465045353", "display_phone": "(646) 504-5353", "distance": 1563.5297646007357}, {"id": "aafj0sUR__011Dm5EZ_TFg", "alias": "bibble-and-sip-new-york-5", "name": "Bibble & Sip", "image_url": "https://s3-media1.fl.yelpcdn.com/bphoto/ADdXC3GLXy8ypYdpP0W_KQ/o.jpg", "is_closed": false, "url": "https://www.yelp.com/biz/bibble-and-sip-new-york-5?adjust_creative=w1T_agSsZFkZALqEYIiCXQ&utm_campaign=yelp_api_v3&utm_medium=api_v3_business_search&utm_source=w1T_agSsZFkZALqEYIiCXQ", "review_count": 25, "categories": [{"alias": "bakeries", "title": "Bakeries"}, {"alias": "coffee", "title": "Coffee & Tea"}], "rating": 4.5, "coordinates": {"latitude": 40.71796, "longitude": -73.99761}, "transactions": [], "price": "$", "location": {"address1": "174 Hester St", "address2": null, "address3": "", "city": "New York", "zip_code": "10013", "country": "US", "state": "NY", "display_address": ["174 Hester St", "New York, NY 10013"]}, "phone": "", "display_phone": "", "distance": 1417.1214277803097}, {"id": "KWC_KYP336tSFhAihd8plg", "alias": "bluestone-lane-brooklyn", "name": "Bluestone Lane", "image_url": "https://s3-media3.fl.yelpcdn.com/bphoto/PWiL-5k7jZnwmTJV7jOGUQ/o.jpg", "is_closed": false, "url": "https://www.yelp.com/biz/bluestone-lane-brooklyn?adjust_creative=w1T_agSsZFkZALqEYIiCXQ&utm_campaign=yelp_api_v3&utm_medium=api_v3_business_search&utm_source=w1T_agSsZFkZALqEYIiCXQ", "review_count": 142, "categories": [{"alias": "coffee", "title": "Coffee & Tea"}, {"alias": "gluten_free", "title": "Gluten-Free"}, {"alias": "breakfast_brunch", "title": "Breakfast & Brunch"}], "rating": 4.0, "coordinates": {"latitude": 40.70078, "longitude": -73.9884299}, "transactions": [], "price": "$$", "location": {"address1": "55 Prospect St", "address2": "", "address3": null, "city": "Brooklyn", "zip_code": "11201", "country": "US", "state": "NY", "display_address": ["55 Prospect St", "Brooklyn, NY 11201"]}, "phone": "+17183746858", "display_phone": "(718) 374-6858", "distance": 718.0555021459111}, {"id": "Qmv4SPta2zx7MhKit8ywag", "alias": "absolute-coffee-brooklyn", "name": "Absolute Coffee", "image_url": "https://s3-media2.fl.yelpcdn.com/bphoto/7-FjJHmxoT8JXS5lvyO13w/o.jpg", "is_closed": false, "url": "https://www.yelp.com/biz/absolute-coffee-brooklyn?adjust_creative=w1T_agSsZFkZALqEYIiCXQ&utm_campaign=yelp_api_v3&utm_medium=api_v3_business_search&utm_source=w1T_agSsZFkZALqEYIiCXQ", "review_count": 158, "categories": [{"alias": "coffee", "title": "Coffee & Tea"}, {"alias": "bakeries", "title": "Bakeries"}], "rating": 4.5, "coordinates": {"latitude": 40.68827, "longitude": -73.987569}, "transactions": [], "price": "$$", "location": {"address1": "327 Atlantic Ave", "address2": null, "address3": "", "city": "Brooklyn", "zip_code": "11201", "country": "US", "state": "NY", "display_address": ["327 Atlantic Ave", "Brooklyn, NY 11201"]}, "phone": "+17185220969", "display_phone": "(718) 522-0969", "distance": 1995.2838490428082}], "total": 6100, "region": {"center": {"longitude": -73.99429321289062, "latitude": 40.70544486444615}}}